GNU MCU Eclipse 64-bit Open On-Chip Debugger 0.10.0+dev-00462-gdd1d90111 (2019-01-15-13:49)
Licensed under GNU GPL v2
For bug reports, read
	http://openocd.org/doc/doxygen/bugs.html
WARNING: interface/stlink-v2.cfg is deprecated, please switch to interface/stlink.cfg
Info : auto-selecting first available session transport "hla_swd". To override use 'transport select <transport>'.
Info : The selected transport took over low-level target control. The results might differ compared to plain JTAG/SWD
adapter speed: 500 kHz
adapter_nsrst_delay: 100
none separate
debug_level: 2
Info : Listening on port 6666 for tcl connections
Info : Listening on port 4444 for telnet connections
Info : clock speed 500 kHz
Info : STLINK V2J17S4 (API v2) VID:PID 0483:3748
Info : Target voltage: 3.257940
Info : stm32l4x.cpu: hardware has 6 breakpoints, 4 watchpoints
Info : Listening on port 50000 for gdb connections
Info : accepting 'gdb' connection on tcp/50000
Info : device id = 0x10076415
Info : flash size = 256kbytes
adapter speed: 500 kHz
target halted due to debug-request, current mode: Thread 
xPSR: 0x01000000 pc: 0x08000188 msp: 0x20018000
adapter speed: 500 kHz
target halted due to debug-request, current mode: Thread 
xPSR: 0x01000000 pc: 0x08000188 msp: 0x20018000
Enable ARM Semihosting to show debug output
semihosting is enabled
target halted due to breakpoint, current mode: Thread 
xPSR: 0x61000000 pc: 0x2000004e msp: 0x20018000, semihosting
Warn : block write succeeded
adapter speed: 500 kHz
target halted due to debug-request, current mode: Thread 
xPSR: 0x01000000 pc: 0x08000188 msp: 0x20018000, semihosting
adapter speed: 500 kHz
target halted due to debug-request, current mode: Thread 
xPSR: 0x01000000 pc: 0x08000188 msp: 0x20018000, semihosting
Info : halted: PC: 0x08004978
ADC create adc1
TMP create temp_stm32_0
ADC open ch 16
NET hwid 22 00 29 00 04 50 42 41 46 36 39 20 
NET standalone node 
GPS create gps_l70r_0
[
]
Rust TMP poll
[
]
$PMTK011,MTKGPS*08
$,,234805.389,V,N*70
$,N,0.00,K,N*32
$GPGGA,234806.389,,,,,0,0,,,M,,M,,*41
$GPC,234806.389,V,,,,,0.00,0.00,090919,,,N*4C
$$GPGGA,234807.389,,,,,0,0,,,M,,M,,*40
$MC,234807.389,V,,,,,0.00,0.00,090919,,,N*4D
$$GPGGA,234808.389,,,,,0,0,,,M,,M,,*4F
$GP00,090919,,,N*42
$$GPGGA,234809.389,,,,,0,0,,,M,,M,,*4E
$090919,,,N*43
$$GPGGA,234810.389,,,,,0,0,,,M,,M,,*46
$*1E
$$GPGGA,234811.389,,,,,0,0,,,M,,M,,*47
$,,,,,,*1E
$$GPGGA,234812.389,,,,,0,0,,,M,,M,,*44
$GE
$$GPGGA,234813.046,,,,,0,0,,,M,,M,,*45
$3.046,V,,,,,0.00,0.00,090919,,,N*48
$$GPGGA,234814.046,,,,,0,0,,,M,,M,,*42
$G90919,,,N*4F
$GPV$GPGGA,234815.098,,,,,0,0,,,M,,M,,*40
$,,,,,,,*1E
$$GPGGA,234816.098,,,,,0,0,,,M,,M,,*43
$,36,07,,,35*79
$GPR$GPGGA,234817.098,,,,,0,0,,,M,,M,,*42
$7,,,35*79
$ADC open ch 16
STM read int temp sensor
Rust handle_sensor_data
TMP listener got rawtmp
Rust send_sensor_data
NET random device id 00000000000000000000000000000000
NET network not ready
TMP network not ready
$GPGGA,234818.098,,,,,0,0,,,M,,M,,*4D
$,,,,0.00,0.00,090919,,,N*40
$$GPGGA,234819.097,,,,,0,0,,,M,,M,,*43
$97,V,,,,,0.00,0.00,090919,,,N*4E
$$GPGGA,234820.097,,,,,0,0,,,M,,M,,*49
$N*44
$$GPGGA,234821.097,,,,,0,0,,,M,,M,,*48
$,,,,,,,,,*1E
$$GPGGA,234822.097,,,,,0,0,,,M,,M,,*4B
$,,36,07,,,35*79
$GP$GPGGA,234823.097,,,,,0,0,,,M,,M,,*4A
$,02,06,,,36,07,,,36*7A
$$GPGGA,234824.097,,,,,0,0,,,M,,M,,*4D
$,,,36*7A
$$GPGGA,234825.096,,,,,0,0,,,M,,M,,*4D
$
$$GPGGA,234826.096,,,,,0,0,,,M,,M,,*4E
$,V,,,,,0.00,0.00,090919,,,N*43
$G$GPGGA,234827.096,,,,,0,0,,,M,,M,,*4F
$,,,,,,,,,,,*1E
$$GPGGA,234828.096,,,,,0,0,,,M,,M,,*40
$,,,,,,*1E
$GPGSV$GPGGA,234829.096,,,,,0,0,,,M,,M,,*41
$,,,,*1E
$$GPGGA,234830.096,,,,,0,0,,,M,,M,,*49
$G7,,,36*7D
$ADC open ch 16
STM read int temp sensor
Rust handle_sensor_data
TMP listener got rawtmp
Rust send_sensor_data
NET network not ready
TMP network not ready
$GPGGA,234831.096,,,,,0,0,,,M,,M,,*48
$,36*7D
$GPRM$GPGGA,234832.096,,,,,0,0,,,M,,M,,*4B
$832.096,V,,,,,0.00,0.00,090919,,,N*46
$$GPGGA,234833.096,,,,,0,0,,,M,,M,,*4A
$,,,,0.00,0.00,090919,,,N*47
$GP$GPGGA,234834.096,,,,,0,0,,,M,,M,,*4D
$40
$$GPGGA,234835.096,,,,,0,0,,,M,,M,,*4C
$$GPGSV,1,1,02,06,,,31,07,,,37*7C
$$GPGGA,234836.096,,,,,0,0,,,M,,M,,*4F
$,,,32,07,,,37*7F
$$GPGGA,234837.096,,,,,0,0,,,M,,M,,*4E
$37*7F
$$GPGGA,234838.096,,,,,0,0,,,M,,M,,*41
$GPGLL,0.00,0.00,090919,,,N*4C
$$GPGGA,234839.096,,,,,0,0,,,M,,M,,*40
$00,090919,,,N*4D
$$GPGGA,234840.096,,,,,0,0,,,M,,M,,*4E
$,,,,,,,,,,,,*1E
$$GPGGA,234841.096,,,,,0,0,,,M,,M,,*4F
$
$$GPGGA,234842.096,,,,,0,0,,,M,,M,,*4C
$GPPGSV,1,1,03,07,,,35,06,,,29,02,,,23*75
$$GPGGA,234843.096,,,,,0,0,,,M,,M,,*4D
$,,34,06,,,29,02,,,23*74
$GPADC open ch 16
STM read int temp sensor
Rust handle_sensor_data
TMP listener got rawtmp
Rust send_sensor_data
NET network not ready
TMP network not ready
$GPGGA,234844.096,,,,,0,0,,,M,,M,,*4A
$,234844.096,V,,,,,0.00,0.00,090919,,,N*47
$G$GPGGA,234845.096,,,,,0,0,,,M,,M,,*4B
$845.096,V,,,,,0.00,0.00,090919,,,N*46
$$GPGGA,234846.096,,,,,0,0,,,M,,M,,*48
$G,,,,,,*1E
$K,N*32
$GPGGA,234847.096,,,,,0,0,,,M,,M,,*49
$GP,,,26*7B
$$GPGGA,234848.096,,,,,0,0,,,M,,M,,*46
$PRMC,234848.096,V,,,,,0.00,0.00,090919,,,N*4B
$$GPGGA,234849.090,,,,,0,0,,,M,,M,,*41
$.00,0.00,090919,,,N*4C
$,,,,,,,,,,,,,,,*1E
$,N,0.00,K,N*32
$GPGGA,234850.310,,,,,0,0,,,M,,M,,*42
$34850.310,V,,,,,0.00,0.00,090919,,,N*4F
$$GPGGA,234851.310,,,,,0,0,,,M,,M,,*43
$1E
$G32
$GPGGA,234852.310,,,,,0,0,,,M,,M,,*40
$*7A
$$GPGGA,234853.310,,,,,0,0,,,M,,M,,*41
$G3.310,V,,,,,0.00,0.00,090919,,,N*4C
$$GPGGA,234854.310,,,,,0,0,,,M,,M,,*46
$1,,,,,,,,,,,,,,,*1E
$,0.00,N,0.00,K,N*32
$GPGGA,234855.105,,,,,0,0,,,M,,M,,*41
$,06,,,32,02,,,23,30,,,22*7B
$GPRMC,$GPGGA,234856.105,,,,,0,0,,,M,,M,,*42
$,30,,,22*7A
$ADC open ch 16
STM read int temp sensor
Rust handle_sensor_data
TMP listener got rawtmp
Rust send_sensor_data
NET network not ready
TMP network not ready
$GPGGA,234857.105,,,,,0,0,,,M,,M,,*43
$,,,,0.00,0.00,090919,,,N*4E
$$GPGGA,234858.105,,,,,0,0,,,M,,M,,*4C
$
$G$GPGGA,234859.105,,,,,0,0,,,M,,M,,*4D
$G,06,,,33,02,,,23,30,,,23*7D
$GPR$GPGGA,234900.105,,,,,0,0,,,M,,M,,*40
$G3,02,,,25,30,,,24*7C
$$GPGGA,234901.090,,,,,0,0,,,M,,M,,*4C
$,V,,,,,0.00,0.00,090919,,,N*41
$GPVTGA,A,1,,,,,,,,,,,,,,,*1E
$GPG00,N,0.00,K,N*32
$GPGGA,234902.310,,,,,0,0,,,M,,M,,*44
$
$$GPGGA,234903.305,,,,,0,3,,,M,,M,,*42
$GP*** satellites: 3
,,,$GPGGA,234904.305,,,,,0,3,,,M,,M,,*45
$28,36,004,*74
$GPGS2,090919,,,N*74
$$GPGGA,234906.000,,,,,0,3,,,M,,M,,*41
$33,28,36,004,*73
$05,090919,,,N*76
$G$GPGGA,234907.000,0116.2278,N,10348.4871,E,1,3,9.05,146.1,M,3.9,M,,*6D
*** lat: 1.2704 / lng: 103.8081 / alt: 146.10

$GPGLL,015.2278,N,10348.4871,E,0.21,110.36,090919,,,A*66
$146.1,M,3.9,M,,*62
$231,21,06,53,251,32,07,46,172,32,28,36,004,*71
$GPGSV07.205,A,0116.2267,N,10348.4866,E,0.47,115.88,090919,,,A*69
$$GPGGA,234909.000,0116.2265,N,10348.4867,E,1,3,9.07,146.1,M,3.9,M,,*6A
*** lat: 1.2704 / lng: 103.8081 / alt: 146.10

$GPGLL,01GS9,,11,03,038,,13,02,269,,193,,,*7D
$GPGGPVTG,110.64,T,,M,0.29,N,0.55,K,A*34
$GPGGA,234910.000,0116.2267,N,10348.4868,E,1,3,9.08,146.1,M,3.9,M,,*60
$G*** lat: 1.2704 / lng: 103.8081 / alt: 146.10
5F
$GPGS,1PVTG,84.59,T,,M,0.09,N,0.16,K,A*03
ADC open ch 16
STM read int temp sensor
Rust handle_sensor_data
TMP listener got rawtmp
Rust send_sensor_data
NET network not ready
TMP network not ready
$GPGGA,234911.000,0116.2240,N,10348.4850,E,1,3,9.09,146.1,M,3.9,M,,*6E
*** lat: 1.2704 / lng: 103.8080 / alt: 146.10

$GPGLL,06,$GPGGA,234912.000,0116.2216,N,10348.4835,E,1,3,9.10,146.1,M,3.9,M,,*65
*** lat: 1.2703 / lng: 103.8080 / alt: 146.10

$GPGLL,0
V,3$GPGGA,234913.000,0116.2163,N,10348.4799,E,1,3,9.11,146.1,M,3.9,M,,*6D
*** lat: 1.2702 / lng: 103.8080 / alt: 146.10

$GPGLL,053,2513.000,A,0116.2163,N,10348.4799,E,0.35,154.43,090919,,,A*64
$GPV8,E,1,3,9.11,146.1,M,3.9,M,,*66
$1,09,30,69,231,30,06,53,251,32,07,46,172,33,28,36,004,*70
$
$$GPGGA,234915.000,0116.2116,N,10348.4765,E,1,3,9.13,146.1,M,3.9,M,,*68
*** lat: 1.2701 / lng: 103.8079 / alt: 146.10

$GPGLL,0,38.4765,E,0.20,184.18,090919,,,A*64
$$GPGGA,234916.000,0116.2110,N,10348.4762,E,1,3,9.14,146.1,M,3.9,M,,*6D
*** lat: 1.2701 / lng: 103.8079 / alt: 146.10

$GPGLL,01$G3,09,02,,,28*78
$$GPGGA,234917.000,0116.2105,N,10348.4759,E,1,3,9.16,146.1,M,3.9,M,,*62
$GPS*** lat: 1.2701 / lng: 103.8079 / alt: 146.10
A,A,2,06,11,02,038,,13,02,269,,193,,,*7C
$5.15,T,,M,0.11,N,0.21,K,A*06
$GPGGA,234918.000,0116.2099,N,10348.4755,E,1,3,9.16,146.1,M,3.9,M,,*65
*** lat: 1.2701 / lng: 103.8079 / alt: 146.10

$GPGLL,01PG2,038,,13,02,269,,193,,,*7C
$,M,0.19,N,0.35,K,A*32
$GPGGA,234919.000,0116.2094,N,10348.4749,E,1,3,9.18,146.1,M,3.9,M,,*6A
*** lat: 1.2701 / lng: 103.8079 / alt: 146.10

$GPGLL,00,3,02,269,,193,,,*7C
$GPGSV0.24,N,0.44,K,A*35
$GPGGA0,A,A*5E
$GPGS,2,09,09,17,159,21,11,02,038,,13,02,269,,193,,,*7F
$A*6F
$GP$GPGGA,234921.000,0116.2091,N,10348.4744,E,1,3,9.20,146.1,M,3.9,M,,*62
$*** lat: 1.2701 / lng: 103.8079 / alt: 146.10
1,30,06,531.000,A,0116.2091,N,10348.4744,E,0.39,254.70,090919,,,A*66
$$GPGGA,234922.000,0116.2091,N,10348.4745,E,1,3,9.21,146.1,M,3.9,M,,*61
*** lat: 1.2701 / lng: 103.8079 / alt: 146.10

$GPGLL,016,,,*75
$A*3A
$GPGGA,234923.000,0116.2090,N,10348.4742,E,1,3,9.22,146.1,M,3.9,M,,*65
$G*** lat: 1.2701 / lng: 103.8079 / alt: 146.10
,30,,,,,,038,,13,02,269,,193,,,*7A
$G2,T,,M,0.70,N,1.30,K,A*3F
$GPGGA,234924.000,0116.2091,N,10348.4741,E,1,3,9.23,146.1,M,3.9,M,,*61
*** lat: 1.2701 / lng: 103.8079 / alt: 146.10

$GPGLL,0,,,193,,,*75
$GA*34
$GPGGA,234925.000,0116.2092,N,10348.4740,E,1,3,9.24,146.1,M,3.9,M,,*65
*** lat: 1.2701 / lng: 103.8079 / alt: 146.10

$GPGLL,01,$GPGSV,3,3,09,02,,,25*75
$GPRMA,234925.210,0116.2093,N,10348.4740,E,1,3,9.24,146.1,M,3.9,M,,*67
$,,,,,,,,,9.29,9.24,1.00*0D
$9,,193,,,*75
$GP,A*37
$GPGGA,234927.000,0116.2090,N,10348.4736,E,1,3,9.26,146.1,M,3.9,M,,*66
*** lat: 1.2701 / lng: 103.8078 / alt: 146.10

$GPGLL,0,1,10348.4736,E,0.68,225.19,090919,,,A*69
$ADC open ch 16
STM read int temp sensor
Rust handle_sensor_data
TMP listener got rawtmp
Rust send_sensor_data
NET network not ready
TMP network not ready
$GPGGA,234928.000,0116.2090,N,10348.4735,E,1,3,9.27,146.1,M,3.9,M,,*6B
$*** lat: 1.2701 / lng: 103.8078 / alt: 146.10
V,3,1,09,09,02,,,25*75
$$GPGGA,234929.000,0116.2091,N,10348.4736,E,1,3,9.28,146.1,M,3.9,M,,*67
*** lat: 1.2701 / lng: 103.8078 / alt: 146.10

$GPGLL,0,A02,038,,13,02,269,,193,,,*75
$03,T,,M,0.54,N,1.00,K,A*39
$GPGGA,234930.000,0116.2089,N,10348.4733,E,1,3,9.29,146.1,M,3.9,M,,*62
$GP*** lat: 1.2701 / lng: 103.8078 / alt: 146.10
7,30,,,,,,3,02,269,,193,,,*74
$1.33,K,A*34
$GPGGA,234931.000,0116.2086,N,10348.4732,E,1,3,9.31,146.1,M,3.9,M,,*64
*** lat: 1.2701 / lng: 103.8078 / alt: 146.10

$GPGLL,0,0,02,038,,13,02,269,,193,,,*7E
$GPGS30,T,,M,0.78,N,1.44,K,A*30
$GPG931.215,A,A*57
$GSV,3,2,09,09,17,159,20,02,13,229,25,11,02,038,,13,02,269,*7B
$215.91,090919,,,A*6C
$$GPGGA,234933.000,0116.2080,N,10348.4725,E,1,4,3.08,146.1,M,3.9,M,,*61
$GPG*** lat: 1.2701 / lng: 103.8078 / alt: 146.10
,3,1,09,303,,*** satellites: 4
,*4$GPGGA,234934.000,0116.2081,N,10348.4722,E,1,4,3.08,146.1,M,3.9,M,,*60
*** lat: 1.2701 / lng: 103.8078 / alt: 146.10

$GPGLL,06,17081,N,10348.4722,E,0.84,233.98,090919,,,A*62
$GPVTG$GPGGA,234935.000,0116.2081,N,10348.4722,E,1,4,3.07,146.1,M,3.9,M,,*6E
*** lat: 1.2701 / lng: 103.8078 / alt: 146.10

$GPGLL,09,9,193,,,*4B
$$GPGGA,234936.000,0116.2079,N,10348.4719,E,1,4,3.07,146.1,M,3.9,M,,*62
*** lat: 1.2701 / lng: 103.8078 / alt: 146.10

$GPGLL,0GP7,159,20,02,13,229,22,11,02,038,,13,02,269,*7C
$,A*69
$GPV$GPGGA,234937.000,0116.2078,N,10348.4716,E,1,4,3.08,146.1,M,3.9,M,,*62
*** lat: 1.2701 / lng: 103.8078 / alt: 146.10

$GPGLL,0,534937.000,A,0116.2078,N,10348.4716,E,0.66,249.79,090919,,,A*6E
$$GPGGA,234938.000,0116.2070,N,10348.4711,E,1,4,3.07,146.1,M,3.9,M,,*6D
$GPG*** lat: 1.2701 / lng: 103.8078 / alt: 146.10
7,1.00*05
*7D
$GPGS8
$GPGGA,234939.000,0116.2063,N,10348.4710,E,1,4,3.08,146.1,M,3.9,M,,*60
$G*** lat: 1.2701 / lng: 103.8078 / alt: 146.10
3,3.08,1.09,*7E
$3A
$GPGGA,234940.000,0116.2059,N,10348.4707,E,1,4,3.08,146.1,M,3.9,M,,*61
$GP*** lat: 1.2700 / lng: 103.8078 / alt: 146.10
,,,3.23,3.,,13,02,269,*7E
$A*30
$GPGGA,234941.000,0116.2056,N,10348.4703,E,1,4,3.08,146.1,M,3.9,M,,*6B
*** lat: 1.2700 / lng: 103.8078 / alt: 146.10

$GPGLL,0123269,*7E
$34
$GPGGA,234942.000,0116.2052,N,10348.4700,E,1,4,3.08,146.1,M,3.9,M,,*6F
$*** lat: 1.2700 / lng: 103.8078 / alt: 146.10
,1.00*0A
*7F
$1
$GPGGA,234943.000,0116.2052,N,10348.4700,E,1,4,3.08,146.1,M,3.9,M,,*6E
*** lat: 1.2700 / lng: 103.8078 / alt: 146.10

$GPGLL,0079,24,11,02,038,,13,02,269,*78
$T,,M,0.73,N,1.34,K,A*38
$GPGGA,234944.000,0116.2052,N,10348.4697,E,1,4,3.08,146.1,M,3.9,M,,*66
*** lat: 1.2700 / lng: 103.8078 / alt: 146.10

$GPGLL,0A,,02,13,229,24,11,02,038,,13,02,269,*78
$PVTG,231.70,T,,M,0.69,N,1.27,K,A*31
$GPGGA,234945.000,0116.2050,N,10ADC open ch 16
STM read int temp sensor
Rust handle_sensor_data
TMP listener got rawtmp
Rust send_sensor_data
NET network not ready
TMP network not ready
348.4697,E,1,4,3.08,146.1,M,3.9,M,,*65
*** lat: 1.2700 / lng: 103.8078 / alt: 146.10

$GPGLL,0,3,TG,223.33,T,,M,0.67,N,1.24,K,A*38
$GPGGA,234946.000,0116.2050,N,10348.4697,E,1,4,3.08,146.1,M,3.9,M,,*66
*** lat: 1.2700 / lng: 103.8078 / alt: 146.10

$GPGLL,070,N,10348.4697,E,0.61,222.71,090919,,,A*68
$$GPGGA,234947.000,0116.2050,N,10348.4697,E,1,4,3.08,146.1,M,3.9,M,,*67
*** lat: 1.2700 / lng: 103.8078 / alt: 146.10

$GPGLL,08,
$$GPGGA,234948.000,0116.2052,N,10348.4698,E,1,4,3.08,146.1,M,3.9,M,,*65
*** lat: 1.2700 / lng: 103.8078 / alt: 146.10

$GPGLL,02,,23,11,02,038,,13,02,269,*7D
$GPG9.07,T,,M,0.53,N,0.98,K,A*37
$GPGGA,234949.000,0116.2054,N,10348.4697,E,1,4,3.08,146.1,M,3.9,M,,*6D
*** lat: 1.2700 / lng: 103.8078 / alt: 146.10

$GPGLL,01GSA9,20,02,13,229,23,11,02,038,,13,02,269,*7D
$GPGS$GPVTG,237.03,T,,M,0.59,N,1.09,K,A*3C
$GPGGA,234950.000,0116.2059,N,10348.4699,E,1,4,3.08,146.1,M,3.9,M,,*66
*** lat: 1.2700 / lng: 103.8078 / alt: 146.10

$GPGLL,01SA,20,02,13,229,23,11,02,038,,13,02,269,*7D
$GPG
$$GPGGA,234951.000,0116.2062,N,10348.4701,E,1,4,3.08,146.0,M,3.9,M,,*6E
*** lat: 1.2701 / lng: 103.8078 / alt: 146.00

$GPGLL,02N,10348.4701,E,0.49,223.37,090919,,,A*68
$$GPGGA,234952.000,0116.2066,N,10348.4699,E,1,4,3.08,146.0,M,3.9,M,,*69
$GP,*** lat: 1.2701 / lng: 103.8078 / alt: 146.00
30,68,230,,*4B
$G$GPGGA,234953.000,0116.2068,N,10348.4697,E,1,4,3.08,146.0,M,3.9,M,,*68
$2*** lat: 1.2701 / lng: 103.8078 / alt: 146.00
,30,,,,,,02,038,,13,02,269,*7A
$.62,N,1.15,K,A*34
$GPGGA,234954.000,0116.2071,N,10348.4697,E,1,4,3.08,146.0,M,3.9,M,,*67
*** lat: 1.2701 / lng: 103.8078 / alt: 146.00

$GPGLL,02,13,02,269,*7A
$,N,1.10,K,A*36
$GPGGA,234955.000,0116.2074,N,10348.4699,E,1,4,3.08,146.0,M,3.9,M,,*6D
*** lat: 1.2701 / lng: 103.8078 / alt: 146.00

$GPGLL,0,,,,,,338,,13,02,269,*7A
$0.96,K,A*35
$GPGGA,234956.000,0116.2076,N,10348.4700,E,1,4,3.08,146.0,M,3.9,M,,*6D
*** lat: 1.2701 / lng: 103.8078 / alt: 146.00

$GPGLL,0,39,23,11,02,038,,13,02,269,*7C
$.17,T,,M,0.44,N,0.82,K,A*36
$GPGGA,234957.000,0116.2076,N,10348.4700,E,1,4,3.07,146.0,M,3.9,M,,*63
$GPG,*** lat: 1.2701 / lng: 103.8078 / alt: 146.00
06,07,02,9,22,11,02,038,,13,02,269,*77
$,247.33,T,,M,0.48,N,0.90,K,A*39
$GPGGA,234958.000,0116.2078,N,10348.4701,E,1,4,3.08,146.0,M,3.9,M,,*6C
$GP*** lat: 1.2701 / lng: 103.8078 / alt: 146.00
PGSA,A,3,,02,13,229,22,11,02,038,,13,02,269,*76
$GPVTG,245.55,T,,M,0.37,N,0.68,K,A*34
$GPGGA,234959.000,0116.2079,N,10348.4700,E,1,4,3.08,146.0,M,3.9,M,,*6D
*** lat: 1.2701 / lng: 103.8078 / alt: 146.00

$GPGLL,07,21,11,02,038,,13,02,269,*75
$M,0.35,N,0.65,K,A*3A
$GPGGA,235000.000,0116.2081,N,10348.4700,E,1,4,3.08,146.0,M,3.9,M,,*6E
$GPG*** lat: 1.2701 / lng: 103.8078 / alt: 146.00
,,,,,,,,,38,,13,02,269,*74
$,N,0.71,K,A*31
$GPGGA,235001.000,0116.2080,N,10348.4700,E,1,4,3.08,146.0,M,3.9,M,,*6E
*** lat: 1.2701 / lng: 103.8078 / alt: 146.00

$GPGLL,03,20,11,02,038,,13,02,269,*74
$GP266.90,T,,M,0.37,N,0.68,K,A*3C
$GPGGA,235002.000,0116.2080,N,10348.4699,E,1,4,3.08,146.0,M,3.9,M,,*6C
$GPG*** lat: 1.2701 / lng: 103.8078 / alt: 146.00
,06,07,02229,20,11,02,038,,13,02,269,*74
$GP32,T,,M,0.37,N,0.69,K,A*37
ADC open ch 16
STM read int temp sensor
Rust handle_sensor_data
TMP listener got rawtmp
Rust send_sensor_data
NET network not ready
TMP network not ready
$GPGGA,235003.000,0116.2078,N,10348.4700,E,1,4,3.08,146.0,M,3.9,M,,*6B
*** lat: 1.2701 / lng: 103.8078 / alt: 146.00

$GPGLL,0,,1T,,M,0.34,N,0.64,K,A*33
$GPGGA,235004.000,0116.2078,N,10348.4700,E,1,4,3.08,146.0,M,3.9,M,,*6C
$GP*** lat: 1.2701 / lng: 103.8078 / alt: 146.00
6,07,02,33,229,21,11,02,038,,13,02,269,*75
$256.90,T,,M,0.33,N,0.62,K,A*31
$GPGGA,235005.000,0116.2074,N,10348.4701,E,1,4,3.08,146.0,M,3.9,M,,*60
*** lat: 1.2701 / lng: 103.8078 / alt: 146.00

$GPGLL,0,3,18,02,13,229,22,11,02,038,,13,02,269,*76
$GPGGPVTG,234.95,T,,M,0.35,N,0.66,K,A*32
$GPGGA,235006.000,0116.2073,N,10348.4703,E,1,4,3.08,146.0,M,3.9,M,,*66
*** lat: 1.2701 / lng: 103.8078 / alt: 146.00

$GPGLL,000116.2073,N,10348.4703,E,0.33,223.82,090919,,,A*63
$$GPGGA,235007.000,0116.2075,N,10348.4708,E,1,4,3.08,146.0,M,3.9,M,,*6A
*** lat: 1.2701 / lng: 103.8078 / alt: 146.00

$GPGLL,0,3,09,193,,,*4B
$$GPGGA,235008.000,0116.2074,N,10348.4712,E,1,4,3.08,146.0,M,3.9,M,,*6F
*** lat: 1.2701 / lng: 103.8078 / alt: 146.00

$GPGLL,0,3,00,02,13,229,23,11,02,038,,13,02,269,*7C
$G
$$GPGGA,235009.000,0116.2075,N,10348.4714,E,1,4,3.08,146.0,M,3.9,M,,*69
$*** lat: 1.2701 / lng: 103.8078 / alt: 146.00
,251,35,0009.000,A,0116.2075,N,10348.4714,E,0.26,171.09,090919,,,A*6F
$$GPGGA,235010.000,0116.2077,N,10348.4714,E,1,4,3.08,146.0,M,3.9,M,,*63
*** lat: 1.2701 / lng: 103.8078 / alt: 146.00

$GPGLL,0,3,269,*7C
$6,K,A*3E
$GPGGA,235011.000,0116.2077,N,10348.4715,E,1,4,3.08,146.0,M,3.9,M,,*63
*** lat: 1.2701 / lng: 103.8078 / alt: 146.00

$GPGLL,0313,02,269,*7D
$.28,K,A*39
$GPGGA,235012.000,0116.2079,N,10348.4715,E,1,4,3.08,146.0,M,3.9,M,,*6E
*** lat: 1.2701 / lng: 103.8078 / alt: 146.00

$GPGLL,030,11,02,038,,13,02,269,*74
$GPGSV,1,T,,M,0.17,N,0.31,K,A*3E
$GPGGA,235013.000,0116.2081,N,10348.4717,E,1,4,3.08,146.0,M,3.9,M,,*6A
*** lat: 1.2701 / lng: 103.8078 / alt: 146.00

$GPGLL,0A,18,02,13,229,21,11,02,038,,13,02,269,*75
$TG,260.28,T,,M,0.11,N,0.20,K,A*31
$GPGGA,235014.000,0116.2084,N,10348.4718,E,1,4,3.08,146.0,M,3.9,M,,*67
*** lat: 1.2701 / lng: 103.8078 / alt: 146.00

$GPGLL,03,02,269,*75
$A*31
$GPGGA,235015.000,0116.2083,N,10348.4717,E,1,4,3.08,146.0,M,3.9,M,,*6E
*** lat: 1.2701 / lng: 103.8078 / alt: 146.00

$GPGLL,0438,,13,02,269,*75
$,M,0.09,N,0.17,K,A*37
$GPGGA,235016.000,0116.2084,N,10348.4717,E,1,4,3.08,146.0,M,3.9,M,,*6A
$GPGL*** lat: 1.2701 / lng: 103.8078 / alt: 146.00
06,07,02,3,229,21,11,02,038,,13,02,269,*74
$GPG,212.20,T,,M,0.17,N,0.32,K,A*39
$GPGGA,235017.000,0116.2084,N,10348.4715,E,1,4,3.08,146.0,M,3.9,M,,*69
*** lat: 1.2701 / lng: 103.8078 / alt: 146.00

$GPGLL,0132,038,,13,02,269,*7D
$,N,0.36,K,A*31
$GPGGA,235018.000,0116.2086,N,10348.4714,E,1,4,3.08,146.0,M,3.9,M,,*65
*** lat: 1.2701 / lng: 103.8078 / alt: 146.00

$GPGLL,0,13,229,23,11,02,038,,13,02,269,*7D
$G,228.39,T,,M,0.19,N,0.36,K,A*32
$GPGGA,235019.000,0116.2086,N,10348.4713,E,1,4,3.08,146.0,M,3.9,M,,*63
*** lat: 1.2701 / lng: 103.8078 / alt: 146.00

$GPGLL,032,13,229,23,11,02,038,,13,02,269,*7D
$G216.37,T,,M,0.24,N,0.44,K,A*3A
$GPGGA,235020.000,0116.2086,N,10348.4711,E,1,4,3.08,ADC open ch 16
STM read int temp sensor
Rust handle_sensor_data
TMP listener got rawtmp
Rust send_sensor_data
NET network not ready
TMP network not ready
146.0,M,3.9,M,,*6B
$GPGL*** lat: 1.2701 / lng: 103.8078 / alt: 146.00
,3,06,07,03,229,23,11,02,038,,13,02,269,*7D
$73,T,,M,0.30,N,0.56,K,A*38
$GPGGA,235021.000,0116.2086,N,10348.4710,E,1,4,3.08,146.0,M,3.9,M,,*6B
$GP*** lat: 1.2701 / lng: 103.8078 / alt: 146.00
,07,02,3029,23,11,02,038,,13,02,269,*7D
$4,T,,M,0.31,N,0.58,K,A*3B
$GPGGA,235022.000,0116.2087,N,10348.4710,E,1,4,3.08,146.0,M,3.9,M,,*69
*** lat: 1.2701 / lng: 103.8078 / alt: 146.00

$GPGLL,0$G158,21,02,13,229,23,11,02,038,,13,02,269,*7D
$,,,A*69
$$GPGGA,235023.000,0116.2087,N,10348.4710,E,1,4,3.08,146.0,M,3.9,M,,*68
$*** lat: 1.2701 / lng: 103.8078 / alt: 146.00
3,251,32,000,A,0116.2087,N,10348.4710,E,0.28,230.18,090919,,,A*66
$$GPGGA,235024.000,0116.2088,N,10348.4709,E,1,4,3.08,146.0,M,3.9,M,,*68
$*** lat: 1.2701 / lng: 103.8078 / alt: 146.00
GSV,3,1,09,193,,,*4B
$$GPGGA,235025.000,0116.2088,N,10348.4708,E,1,4,3.08,146.0,M,3.9,M,,*68
*** lat: 1.2701 / lng: 103.8078 / alt: 146.00

$GPGLL,01,,02,269,*7D
$55,K,A*35
$GPGGA,235026.000,0116.2088,N,10348.4708,E,1,4,3.08,146.0,M,3.9,M,,*6B
*** lat: 1.2701 / lng: 103.8078 / alt: 146.00

$GPGLL,0,,02,038,,13,02,269,*7D
$,,M,0.31,N,0.58,K,A*39
$GPGGA,235027.000,0116.2087,N,10348.4708,E,1,4,3.08,146.0,M,3.9,M,,*65
*** lat: 1.2701 / lng: 103.8078 / alt: 146.00

$GPGLL,0,3,21,11,02,038,,13,02,269,*7E
$,T,,M,0.30,N,0.57,K,A*35
$GPGGA,235028.000,0116.2086,N,10348.4707,E,1,4,3.08,146.0,M,3.9,M,,*64
*** lat: 1.2701 / lng: 103.8078 / alt: 146.00

$GPGLL,00,11,02,038,,13,02,269,*7E
$GPGSV0.37,N,0.68,K,A*38
$GPGGA,235029.000,0116.2088,N,10348.4707,E,1,4,3.08,146.0,M,3.9,M,,*6B
*** lat: 1.2701 / lng: 103.8078 / alt: 146.00

$GPGLL,00,21,11,02,038,,13,02,269,*7F
$G38,T,,M,0.35,N,0.65,K,A*33
$GPGGA,235030.000,0116.2087,N,10348.4707,E,1,4,3.08,146.0,M,3.9,M,,*6C
*** lat: 1.2701 / lng: 103.8078 / alt: 146.00

$GPGLL,0,32,13,229,21,11,02,038,,13,02,269,*7F
$GPVTG,253.10,T,,M,0.32,N,0.59,K,A*35
$GPGGA,235031.000,0116.2088,N,10348.4708,E,1,4,3.08,146.0,M,3.9,M,,*6D
*** lat: 1.2701 / lng: 103.8078 / alt: 146.00

$GPGLL,0P,21,02,13,229,21,11,02,038,,13,02,269,*7F
$6
$$GPGGA,235032.000,0116.2090,N,10348.4711,E,1,4,3.08,146.0,M,3.9,M,,*6F
*** lat: 1.2701 / lng: 103.8078 / alt: 146.00

$GPGLL,01GS17,158,20,02,13,229,21,11,02,038,,13,02,269,*7E
$0919,,,A*60
$$GPGGA,235033.000,0116.2090,N,10348.4710,E,1,4,3.08,146.0,M,3.9,M,,*6F
*** lat: 1.2701 / lng: 103.8078 / alt: 146.00

$GPGLL,023.000,A,0116.2090,N,10348.4710,E,0.23,239.51,090919,,,A*6E
$GP$GPGGA,235034.000,0116.2094,N,10348.4708,E,1,4,3.08,146.0,M,3.9,M,,*65
$*** lat: 1.2701 / lng: 103.8078 / alt: 146.00
4,3.08,1.269,*77
$,K,A*34
$GPGGA,235035.000,0116.2096,N,10348.4708,E,1,4,3.08,146.0,M,3.9,M,,*66
*** lat: 1.2701 / lng: 103.8078 / alt: 146.00

$GPGLL,0,,,02,038,,13,02,269,*78
$9,N,0.72,K,A*3F
$GPGGA,235036.000,0116.2096,N,10348.4709,E,1,4,3.08,146.0,M,3.9,M,,*64
$GP*** lat: 1.2701 / lng: 103.8078 / alt: 146.00
,3.24,3.0,13,02,269,*79
$,K,A*36
$GPGGA,235037.000,0116.2098,N,10348.4709,E,1,4,3.08,146.0,M,3.9,M,,*6B
$GPG,*** lat: 1.2701 / lng: 103.8078 / alt: 146.00
,,,,,,3.2,038,,13,02,269,*7A
$,0.24,N,0.45,K,A*3A
ADC open ch 16
STM read int temp sensor
Rust handle_sensor_data
TMP listener got rawtmp
Rust send_sensor_data
NET network not ready
TMP network not ready
$GPGGA,235038.000,0116.2101,N,10348.4708,E,1,4,3.08,146.0,M,3.9,M,,*64
*** lat: 1.2701 / lng: 103.8078 / alt: 146.00

$GPGLL,001,T,,M,0.26,N,0.48,K,A*35
$GPGGA,235039.000,0116.2104,N,10348.4708,E,1,4,3.08,146.0,M,3.9,M,,*60
$GPG2*** lat: 1.2701 / lng: 103.8078 / alt: 146.00
,30,,,,,,,02,038,,13,02,269,*7A
$G,,M,0.24,N,0.44,K,A*32
$GPGGA,235040.000,0116.2105,N,10348.4707,E,1,4,3.08,146.0,M,3.9,M,,*60
*** lat: 1.2701 / lng: 103.8078 / alt: 146.00

$GPGLL,0SA02,13,229,21,11,02,038,,13,02,269,*7A
$73.87,T,,M,0.27,N,0.49,K,A*3C
$GPGGA,235041.000,0116.2110,N,10348.4705,E,1,4,3.08,146.0,M,3.9,M,,*67
*** lat: 1.2701 / lng: 103.8078 / alt: 146.00

$GPGLL,0713,229,22,11,02,038,,13,02,269,*79
$G,287.80,T,,M,0.34,N,0.63,K,A*3A
$GPGGA,235042.000,0116.2109,N,10348.4703,E,1,4,3.08,146.0,M,3.9,M,,*6A
*** lat: 1.2701 / lng: 103.8078 / alt: 146.00

$GPGLL,0,116.2109,N,10348.4703,E,0.35,276.55,090919,,,A*63
$$GPGGA,235043.000,0116.2110,N,10348.4701,E,1,4,3.08,146.0,M,3.9,M,,*61
$*** lat: 1.2701 / lng: 103.8078 / alt: 146.00
D
$GPGSVSV,3,3,$GPGGA,235044.000,0116.2109,N,10348.4699,E,1,4,3.08,146.0,M,3.9,M,,*6E
*** lat: 1.2701 / lng: 103.8078 / alt: 146.00

$GPGLL,0,3,06,058,18,02,13,229,23,11,02,038,*74
$PVTG,239.08,T,,M,0.32,N,0.60,K,A*3A
$GPGGA,235045.000,0116.2108,N,10348.4696,E,1,4,3.08,146.0,M,3.9,M,,*61
*** lat: 1.2701 / lng: 103.8078 / alt: 146.00

$GPGLL,0,,,,11,02,038,*74
$,0.37,N,0.68,K,A*36
$GPGGA,235046.000,0116.2108,N,10348.4693,E,1,4,3.08,145.9,M,3.9,M,,*6D
$GPG,*** lat: 1.2701 / lng: 103.8078 / alt: 145.89
,3.24,3.0,038,*74
$,0.79,K,A*35
$GPGGA,235047.000,0116.2107,N,10348.4692,E,1,4,3.08,145.9,M,3.9,M,,*62
*** lat: 1.2701 / lng: 103.8078 / alt: 145.89

$GPGLL,0,23,11,02,038,*74
$,T,,M,0.41,N,0.76,K,A*39
$GPGGA,235048.000,0116.2110,N,10348.4692,E,1,4,3.08,145.9,M,3.9,M,,*6B
$GPGL*** lat: 1.2701 / lng: 103.8078 / alt: 145.89
3.08,1.00,02,038,*74
$,,M,0.37,N,0.68,K,A*33
$GPGGA,235049.000,0116.2110,N,10348.4692,E,1,4,3.08,145.9,M,3.9,M,,*6A
*** lat: 1.2701 / lng: 103.8078 / alt: 145.89

$GPGLL,01SA331,,09,17,158,18,02,13,229,22,11,02,038,*75
$GP.91,090919,,,A*67
$$GPGGA,235050.000,0116.2107,N,10348.4691,E,1,4,3.08,145.9,M,3.9,M,,*67
$*** lat: 1.2701 / lng: 103.8078 / alt: 145.89
9,32,06,5393,,,*7E
$GPR$GPGGA,235051.000,0116.2109,N,10348.4690,E,1,4,3.08,145.9,M,3.9,M,,*69
*** lat: 1.2701 / lng: 103.8078 / alt: 145.89

$GPGLL,0,,,229,21,11,02,038,*76
$TG,277.70,T,,M,0.40,N,0.74,K,A*3F
$GPGGA,235052.000,0116.2110,N,10348.4693,E,1,4,3.08,145.9,M,3.9,M,,*61
$*** lat: 1.2701 / lng: 103.8078 / alt: 145.89
06,07,02,9,17,158,18,02,13,229,21,11,02,038,*76
$G9,,,A*67
$$GPGGA,235053.000,0116.2108,N,10348.4693,E,1,4,3.08,145.9,M,3.9,M,,*69
$,*** lat: 1.2701 / lng: 103.8078 / alt: 145.89
31,06,53,,*7E
$$GPGGA,235054.000,0116.2105,N,10348.4694,E,1,4,3.08,145.9,M,3.9,M,,*64
$GPG.*** lat: 1.2701 / lng: 103.8078 / alt: 145.89
08,1.00*0,*75
$GN,0.37,K,A*38
$GPGGA,235055.000,0116.2105,N,10348.4696,E,1,4,3.08,145.9,M,3.9,M,,*67
*** lat: 1.2701 / lng: 103.8078 / alt: 145.89

$GPGLL,01,3,11,02,038,*75
$GPGS,T,,M,0.16,N,0.30,K,A*39
ADC open ch 16
STM read int temp sensor
Rust handle_sensor_data
TMP listener got rawtmp
Rust send_sensor_data
NET network not ready
TMP network not ready
$GPGGA,235056.000,0116.2107,N,10348.4699,E,1,4,3.08,145.9,M,3.9,M,,*69
*** lat: 1.2701 / lng: 103.8078 / alt: 145.89

$GPGLL,0$V,D
$GPGGA,235057.000,0116.2108,N,10348.4701,E,1,4,3.08,145.9,M,3.9,M,,*67
*** lat: 1.2701 / lng: 103.8078 / alt: 145.89

$GPGLL,010DGSV,3,3,10,13,02,269,,193,,,*7E
$GPRMCA*35
$GPGGA,235058.000,0116.2108,N,10348.4704,E,1,4,3.08,145.9,M,3.9,M,,*6D
*** lat: 1.2701 / lng: 103.8078 / alt: 145.89

$GPGLL,00*79
$03,N,0.05,K,A*3D
$GPGGA,235059.000,0116.2109,N,10348.4706,E,1,4,3.08,145.9,M,3.9,M,,*6F
*** lat: 1.2701 / lng: 103.8078 / alt: 145.89

$GPGLL,01,,,14,229,22,11,02,038,*79
$G335.49,T,,M,0.11,N,0.20,K,A*37
$GPGGA,235100.000,0116.2107,N,10348.4707,E,1,4,3.08,145.9,M,3.9,M,,*6D
*** lat: 1.2701 / lng: 103.8078 / alt: 145.89

$GPGLL,01,,29,22,11,02,038,*79
$VTG,339.76,T,,M,0.05,N,0.09,K,A*39
$GPGGA,235101.000,0116.2108,N,10348.4708,E,1,4,3.08,145.9,M,3.9,M,,*6C
$*** lat: 1.2701 / lng: 103.8078 / alt: 145.89
,A,3,06,09,17,158,20,02,14,229,21,11,02,038,*7A
$GP090919,,,A*6D
$$GPGGA,235102.000,0116.2108,N,10348.4709,E,1,4,3.08,145.9,M,3.9,M,,*6E
*** lat: 1.2701 / lng: 103.8078 / alt: 145.89

$GPGLL,01,A331,,09,17,158,19,02,14,229,21,11,02,038,*70
$8,090919,,,A*65
$$GPGGA,235103.000,0116.2109,N,10348.4710,E,1,4,3.08,145.9,M,3.9,M,,*66
$G2*** lat: 1.2701 / lng: 103.8078 / alt: 145.89
29,25,06,69,,193,,,*7E
$$GPGGA,235104.000,0116.2108,N,10348.4710,E,1,4,3.08,145.9,M,3.9,M,,*60
*** lat: 1.2701 / lng: 103.8078 / alt: 145.89

$GPGLL,032,038,*71
$N,0.15,K,A*3E
$GPGGA,235105.000,0116.2107,N,10348.4710,E,1,4,3.08,145.9,M,3.9,M,,*6E
*** lat: 1.2701 / lng: 103.8078 / alt: 145.89

$GPGLL,014,38,*71
$GPGSV0.03,N,0.05,K,A*30
$GPGGA,235106.000,0116.2105,N,10348.4710,E,1,4,3.08,145.9,M,3.9,M,,*6F
$*** lat: 1.2701 / lng: 103.8078 / alt: 145.89
.08,1.00*7B
$,0.08,K,A*3A
$GPGGA,235107.000,0116.2103,N,10348.4709,E,1,4,3.08,145.8,M,3.9,M,,*61
*** lat: 1.2701 / lng: 103.8078 / alt: 145.80

$GPGLL,04,0,11,02,038,*7A
$3,T,,M,0.07,N,0.13,K,A*3E
$GPGGA,235107.000,0116.2099,N,10348.4707,E,1,4,3.08,145.8,M,3.9,M,,*6D
*** lat: 1.2701 / lng: 103.8078 / alt: 145.80

$GPGLL,012411,02,038,*7A
$T,,M,0.12,N,0.22,K,A*33
$GPGGA,235108.000,0116.2097,N,10348.4706,E,1,4,3.08,145.8,M,3.9,M,,*6D
*** lat: 1.2701 / lng: 103.8078 / alt: 145.80

$GPGLL,0,3,14,229,20,11,02,038,*7A
$VTG,254.03,T,,M,0.13,N,0.25,K,A*38
$GPGGA,235109.000,0116.2095,N,10348.4704,E,1,4,3.08,145.8,M,3.9,M,,*6C
*** lat: 1.2701 / lng: 103.8078 / alt: 145.80

$GPGLL,0,3.0,*78
$,K,A*3F
$GPGGA,235110.000,0116.2091,N,10348.4704,E,1,4,3.08,145.8,M,3.9,M,,*60
$GPGLL*** lat: 1.2701 / lng: 103.8078 / alt: 145.80
8,1.00*0D
8
$,A*3F
$GPGGA,235111.000,0116.2088,N,10348.4703,E,1,4,3.08,145.8,M,3.9,M,,*6E
*** lat: 1.2701 / lng: 103.8078 / alt: 145.80

$GPGLL,0113,02,268,,193,,,*7F
$$GPGGA,235112.000,0116.2087,N,10348.4703,E,1,4,3.08,145.8,M,3.9,M,,*62
*** lat: 1.2701 / lng: 103.8078 / alt: 145.80

$GPGLL,0,36,000,A,0116.2087,N,10348.4703,E,0.30,204.38,090919,,,A*6B
$ADC open ch 16
STM read int temp sensor
Rust handle_sensor_data
TMP listener got rawtmp
Rust send_sensor_data
NET network not ready
TMP network not ready
$GPGGA,235113.000,0116.2087,N,10348.4703,E,1,4,3.08,145.8,M,3.9,M,,*63
$GPGL*** lat: 1.2701 / lng: 103.8078 / alt: 145.80
9,28,06,53,*7F
$G$GPGGA,235114.000,0116.2087,N,10348.4703,E,1,4,3.08,145.8,M,3.9,M,,*64
*** lat: 1.2701 / lng: 103.8078 / alt: 145.80

$GPGLL,0124,038,*73
$GPG0.47,K,A*31
$GPGGA,235115.000,0116.2086,N,10348.4704,E,1,4,3.08,145.8,M,3.9,M,,*63
$GPG.*** lat: 1.2701 / lng: 103.8078 / alt: 145.80
00*0D
$G*727,N,0.50,K,A*3B
$GPGGA,235116.000,0116.2086,N,10348.4705,E,1,4,3.08,145.8,M,3.9,M,,*61
*** lat: 1.2701 / lng: 103.8078 / alt: 145.80

$GPGLL,01,,1,11,02,038,*70
$GPG185.32,T,,M,0.26,N,0.47,K,A*37
$GPGGA,235117.000,0116.2085,N,10348.4707,E,1,4,3.08,145.8,M,3.9,M,,*61
*** lat: 1.2701 / lng: 103.8078 / alt: 145.80

$GPGLL,01088,*7A
$59,K,A*33
$GPGGA,235118.000,0116.2086,N,10348.4709,E,1,4,3.08,145.8,M,3.9,M,,*63
*** lat: 1.2701 / lng: 103.8078 / alt: 145.80

$GPGLL,0,302,038,*7A
$GP30,N,0.56,K,A*34
$GPGGA,235119.000,0116.2087,N,10348.4710,E,1,4,3.08,145.8,M,3.9,M,,*6B
*** lat: 1.2701 / lng: 103.8078 / alt: 145.80

$GPGLL,0,,,14,229,21,11,02,038,*7B
$GPG8.65,T,,M,0.25,N,0.46,K,A*34
$GPGGA,235120.000,0116.2090,N,10348.4712,E,1,4,3.08,145.8,M,3.9,M,,*65
*** lat: 1.2701 / lng: 103.8078 / alt: 145.80

$GPGLL,01249,21,11,02,038,*78
$GPGSV,M,0.15,N,0.28,K,A*38
$GPGGA,235121.000,0116.2093,N,10348.4714,E,1,4,3.08,145.8,M,3.9,M,,*61
*** lat: 1.2701 / lng: 103.8078 / alt: 145.80

$GPGLL,03.1,02,038,*79
$0.10,N,0.18,K,A*3A
$GPGGA,235122.000,0116.2096,N,10348.4714,E,1,4,3.08,145.8,M,3.9,M,,*67
*** lat: 1.2701 / lng: 103.8078 / alt: 145.80

$GPGLL,0,08,23,02,14,229,21,11,02,038,*79
$TG,315.94,T,,M,0.03,N,0.06,K,A*32
$GPGGA,235123.000,0116.2099,N,10348.4715,E,1,4,3.08,145.8,M,3.9,M,,*68
*** lat: 1.2701 / lng: 103.8078 / alt: 145.80

$GPGLL,0,34,02,14,229,21,11,02,038,*7E
$GPGS$GPVTG,341.11,T,,M,0.11,N,0.20,K,A*39
$GPGGA,235124.000,0116.2102,N,10348.4716,E,1,4,3.08,145.8,M,3.9,M,,*6F
*** lat: 1.2701 / lng: 103.8078 / alt: 145.80

$GPGLL,01074,02,14,229,21,11,02,038,*7E
$TG,345.57,T,,M,0.17,N,0.31,K,A*39
$GPGGA,235125.000,0116.2106,N,10348.4717,E,1,4,69.68,145.8,M,3.9,M,,*51
$GPG*** lat: 1.2701 / lng: 103.8078 / alt: 145.80
,,,90.30,229,20,11,02,038,*78
$GTG,345.26,T,,M,0.24,N,0.45,K,A*3C
$GPGGA,235126.000,0116.2112,N,10348.4717,E,1,4,69.34,145.8,M,3.9,M,,*5E
*** lat: 1.2701 / lng: 103.8078 / alt: 145.80

$GPGLL,0A,331,,09,17,158,22,02,14,229,19,11,02,038,*73
$6,090919,,,A*65
$$GPGGA,235127.000,0116.2114,N,10348.4717,E,1,4,3.08,145.8,M,3.9,M,,*6A
*** lat: 1.2701 / lng: 103.8078 / alt: 145.80

$GPGLL,01SA,,17,158,21,02,14,229,18,11,02,038,*71
$A*68
$GP$GPGGA,235128.000,0116.2115,N,10348.4716,E,1,4,68.65,145.8,M,3.9,M,,*53
*** lat: 1.2701 / lng: 103.8078 / alt: 145.80

$GPGLL,0SA09,17,158,21,02,14,229,17,11,02,038,*7E
$9,,,A*65
$G$GPGGA,235129.000,0116.2117,N,10348.4715,E,1,4,68.30,145.8,M,3.9,M,,*53
$*** lat: 1.2701 / lng: 103.8078 / alt: 145.80
07,02,30,,158,22,02,14,229,17,11,02,038,*7D
$,,,A*6A
$GPVTG$GPGGA,235130.000,0116.2119,N,10348.4714,E,1,4,3.08,145.8,M,3.9,M,,*62
*** lat: 1.2701 / lng: 103.8078 / alt: 145.80

$GPGLL,0107235130.000,A,0116.2119,N,10348.4714,E,0.39,342.16,090919,,,A*6D
$ADC open ch 16
STM read int temp sensor
Rust handle_sensor_data
TMP listener got rawtmp
Rust send_sensor_data
NET network not ready
TMP network not ready
$GPGGA,235131.000,0116.2120,N,10348.4713,E,1,4,3.08,145.8,M,3.9,M,,*6E
*** lat: 1.2702 / lng: 103.8078 / alt: 145.80

$GPGLL,01,2,26$GPGGA,235132.000,0116.2117,N,10348.4712,E,1,4,3.08,145.8,M,3.9,M,,*68
*** lat: 1.2701 / lng: 103.8078 / alt: 145.80

$GPGLL,0107,02,32,14,230,17,11,02,038,*72
$,T,,M,0.21,N,0.39,K,A*03
$GPGGA,235133.000,0116.2113,N,10348.4708,E,1,4,66.92,145.8,M,3.9,M,,*56
*** lat: 1.2701 / lng: 103.8078 / alt: 145.80

$GPGLL,01,,,230,17,11,02,038,*71
$GP27,T,,M,0.13,N,0.24,K,A*38
$GPGGA,235134.000,0116.2108,N,10348.4704,E,1,4,3.08,145.7,M,3.9,M,,*68
*** lat: 1.2701 / lng: 103.8078 / alt: 145.70

$GPGLL,014,3.,038,*70
$N,0.15,K,A*30
$GPGGA,235135.000,0116.2103,N,10348.4702,E,1,4,3.08,145.7,M,3.9,M,,*64
*** lat: 1.2701 / lng: 103.8078 / alt: 145.70

$GPGLL,0PG,3,3,10,13,02,268,,193,,,*7F
$K,A*3C
$GPGGA,235136.000,0116.2102,N,10348.4702,E,1,4,3.08,145.7,M,3.9,M,,*66
*** lat: 1.2701 / lng: 103.8078 / alt: 145.70

$GPGLL,02,308,27,02,14,230,18,11,02,038,*7F
$6F
$$GPGGA,235137.000,0116.2100,N,10348.4702,E,1,4,3.08,145.7,M,3.9,M,,*65
*** lat: 1.2701 / lng: 103.8078 / alt: 145.70

$GPGLL,011,36,A,0116.2100,N,10348.4702,E,0.15,191.78,090919,,,A*6F
$$GPGGA,235138.000,0116.2098,N,10348.4701,E,1,4,3.08,145.7,M,3.9,M,,*69
$*** lat: 1.2701 / lng: 103.8078 / alt: 145.70
,253,28,07,235138.000,A,0116.2098,N,10348.4701,E,0.19,201.07,090919,,,A*6D
$$GPGGA,235139.000,0116.2095,N,10348.4699,E,1,4,3.08,145.7,M,3.9,M,,*65
*** lat: 1.2701 / lng: 103.8078 / alt: 145.70

$GPGLL,0,38,*72
$,0.26,N,0.49,K,A*38
$GPGGA,235140.000,0116.2093,N,10348.4697,E,1,4,3.08,145.7,M,3.9,M,,*63
$GPGLL*** lat: 1.2701 / lng: 103.8078 / alt: 145.70
0D
$GPGSPG*30
$GPGGA,235141.000,0116.2092,N,10348.4695,E,1,4,3.08,145.8,M,3.9,M,,*6E
*** lat: 1.2701 / lng: 103.8078 / alt: 145.80

$GPGLL,03.038,*72
$8,N,0.52,K,A*39
$GPGGA,235142.000,0116.2090,N,10348.4693,E,1,4,3.08,145.8,M,3.9,M,,*69
*** lat: 1.2701 / lng: 103.8078 / alt: 145.80

$GPGLL,0,1.02,038,*72
$GPGSM,0.30,N,0.56,K,A*3B
$GPGGA,235143.000,0116.2087,N,10348.4690,E,1,4,3.08,145.8,M,3.9,M,,*6D
*** lat: 1.2701 / lng: 103.8078 / alt: 145.80

$GPGLL,014,14,230,17*70
$G,233.80,T,,M,0.35,N,0.66,K,A*31
$GPGGA,235144.000,0116.2083,N,10348.4687,E,1,4,3.08,145.8,M,3.9,M,,*68
$*** lat: 1.2701 / lng: 103.8078 / alt: 145.80
24,3.08,130,17*70
$T,,M,0.42,N,0.79,K,A*36
$GPGGA,235145.000,0116.2084,N,10348.4687,E,1,4,3.08,145.8,M,3.9,M,,*6E
$GPG,*** lat: 1.2701 / lng: 103.8078 / alt: 145.80
,,,,,,3.2,158,26,02,14,230,17*70
$GPG19,,,A*68
$GP$GPGGA,235146.000,0116.2083,N,10348.4685,E,1,4,3.08,145.8,M,3.9,M,,*68
$*** lat: 1.2701 / lng: 103.8078 / alt: 145.80
6,07,02,301,,09,17,158,26,02,14,230,17*70
$090919,,,A*6D
$$GPGGA,235147.000,0116.2079,N,10348.4684,E,1,4,3.08,145.8,M,3.9,M,,*6D
*** lat: 1.2701 / lng: 103.8078 / alt: 145.80

$GPGLL,01307,158,26,02,14,230,17*70
$
$$GPGGA,235148.000,0116.2079,N,10348.4683,E,1,4,3.08,145.8,M,3.9,M,,*65
$GP0*** lat: 1.2701 / lng: 103.8078 / alt: 145.80
7,02,30,,11,,09,17,158,26,02,14,230,18*7C
$7,090919,,,A*6B
$GPADC open ch 16
STM read int temp sensor
Rust handle_sensor_data
TMP listener got rawtmp
Rust send_sensor_data
NET network not ready
TMP network not ready
$GPGGA,235149.000,0116.2076,N,10348.4681,E,1,4,3.08,145.8,M,3.9,M,,*69
*** lat: 1.2701 / lng: 103.8078 / alt: 145.80

$GPGLL,01,11,090919,,,A*6F
$$GPGGA,235150.000,0116.2074,N,10348.4679,E,1,4,3.08,145.8,M,3.9,M,,*64
*** lat: 1.2701 / lng: 103.8078 / alt: 145.80

$GPGLL,01,07,311,,09,17,158,25,02,14,230,18*7F
$9,,,A*60
$$GPGGA,235151.000,0116.2071,N,10348.4677,E,1,4,3.08,145.8,M,3.9,M,,*6E
*** lat: 1.2701 / lng: 103.8077 / alt: 145.80

$GPGLL,0,07,20,311,,09,17,158,24,02,14,230,17*71
$62,228.11,090919,,,A*65
$$GPGGA,235152.000,0116.2071,N,10348.4677,E,1,4,3.08,145.8,M,3.9,M,,*6D
*** lat: 1.2701 / lng: 103.8077 / alt: 145.80

$GPGLL,0125,07,,193,,,*47
$$GPGGA,235153.000,0116.2072,N,10348.4676,E,1,4,3.08,145.8,M,3.9,M,,*6E
*** lat: 1.2701 / lng: 103.8077 / alt: 145.80

$GPGLL,010D
$GPG$G0.59,N,1.10,K,A*36
$GPGGA,235154.000,0116.2074,N,10348.4676,E,1,4,3.08,145.8,M,3.9,M,,*6F
*** lat: 1.2701 / lng: 103.8077 / alt: 145.80

$GPGLL,0
,3,11,11,02,038,,13,02,268,,193,,,*47
$,A*33
$GPGGA,235155.000,0116.2072,N,10348.4675,E,1,4,3.08,145.8,M,3.9,M,,*6B
*** lat: 1.2701 / lng: 103.8077 / alt: 145.80

$GPGLL,06802,038,,13,02,268,,193,,,*47
$A*37
$GPGGA,235156.000,0116.2073,N,10348.4674,E,1,4,3.08,145.8,M,3.9,M,,*68
*** lat: 1.2701 / lng: 103.8077 / alt: 145.80

$GPGLL,01
$GPGM,0.60,N,1.11,K,A*3A
$GPGGA,235157.000,0116.2070,N,10348.4671,E,1,4,3.08,145.8,M,3.9,M,,*6F
*** lat: 1.2701 / lng: 103.8077 / alt: 145.80

$GPGLL,000$GPGSV,3,3,11,11,02,038,,13,02,268,,193,,,*47
$N,1.19,K,A*31
$GPGGA,235158.000,0116.2069,N,10348.4671,E,1,4,3.08,145.8,M,3.9,M,,*68
*** lat: 1.2701 / lng: 103.8077 / alt: 145.80

$GPGLL,011,,11,02,038,,13,02,268,,193,,,*47
$GK,A*3D
$GPGGA,235159.000,0116.2068,N,10348.4671,E,1,4,3.08,145.8,M,3.9,M,,*68
*** lat: 1.2701 / lng: 103.8077 / alt: 145.80

$GPGLL,0111,30,,11,11,02,038,,13,02,268,,193,,,*47
$.04,K,A*3D
$GPGGA,235200.000,0116.2068,N,10348.4670,E,1,4,3.08,145.8,M,3.9,M,,*66
*** lat: 1.2701 / lng: 103.8077 / alt: 145.80

$GPGLL,01GPV,3,3,11,11,02,038,,13,02,268,,193,,,*47
$0,K,A*39
$GPGGA,235201.000,0116.2068,N,10348.4671,E,1,4,3.08,145.8,M,3.9,M,,*66
*** lat: 1.2701 / lng: 103.8077 / alt: 145.80

$GPGLL,01V,3V,3,3,11,11,02,038,,13,02,268,,193,,,*47
$.97,K,A*3F
$GPGGA,235202.000,0116.2069,N,10348.4673,E,1,4,3.08,145.8,M,3.9,M,,*66
*** lat: 1.2701 / lng: 103.8077 / alt: 145.80

$GPGLL,01.05*71
$1,T,,M,0.45,N,0.83,K,A*30
$GPGGA,235203.000,0116.2070,N,10348.4678,E,1,4,3.08,145.8,M,3.9,M,,*64
*** lat: 1.2701 / lng: 103.8078 / alt: 145.80

$GPGLL,01,,,,,3.,26,02,14,230,11*75
$GPGSVGPVTG,223.98,T,,M,0.36,N,0.66,K,A*3A
$GPGGA,235204.000,0116.2072,N,10348.4683,E,1,4,3.08,145.8,M,3.9,M,,*65
*** lat: 1.2701 / lng: 103.8078 / alt: 145.80

$GPGLL,0,58,25,02,14,230,12*75
$PVTG,205.11,T,,M,0.27,N,0.51,K,A*3B
$GPGGA,235205.000,0116.2071,N,10348.4683,E,1,4,3.08,145.8,M,3.9,M,,*67
*** lat: 1.2701 / lng: 103.8078 / alt: 145.80

$GPGLL,013.12*75
$2,T,,M,0.23,N,0.43,K,A*31
$GPGGA,235206.000,0116.2069,N,10348.4681,E,1,4,3.08,145.8,M,3.9,M,,*6F
*** lat: 1.2701 / lng: 103.8078 / alt: 145.80

$GPGLL,0,,,3.248,25,02,14,230,14*73
$G6D
$G$GPGGA,235207.000,0116.2066,N,10348.4680,E,1,4,3.08,145.8,M,3.9,M,,*60
*** lat: 1.2701 / lng: 103.8078 / alt: 145.80

$GPGLL,0,058,25,02,14,230,14*73
$8
$ADC open ch 16
STM read int temp sensor
Rust handle_sensor_data
TMP listener got rawtmp
Rust send_sensor_data
NET network not ready
TMP network not ready
$GPGGA,235208.000,0116.2064,N,10348.4680,E,1,4,3.08,145.8,M,3.9,M,,*6D
*** lat: 1.2701 / lng: 103.8078 / alt: 145.80

$GPGLL,0139919,,,A*66
$GPVTG$GPGGA,235209.000,0116.2063,N,10348.4680,E,1,4,3.08,145.8,M,3.9,M,,*6B
$GP*** lat: 1.2701 / lng: 103.8078 / alt: 145.80
GSA,A,3,0,311,,09,17,158,25,02,14,230,12*75
$090919,,,A*62
$GPVTG$GPGGA,235210.000,0116.2063,N,10348.4679,E,1,4,3.08,145.8,M,3.9,M,,*65
$GPGL3*** lat: 1.2701 / lng: 103.8078 / alt: 145.80
,06,07,02,0,311,,09,17,158,25,02,14,230,15*72
$0919,,,A*61
$$GPGGA,235211.000,0116.2062,N,10348.4679,E,1,4,3.08,145.8,M,3.9,M,,*65
*** lat: 1.2701 / lng: 103.8078 / alt: 145.80